{
  "success": true,
  "data": {
    "cars": [{
        "id": 1,
        "lat": 52.969325,
        "lon": 36.080557,
        "angle": 0,
        "model": "309",
        "mark": "Peugeot",
        "fuelDistance": 437.5,
        "color": "синий",
        "fuel": 35,
        "maxFuelLevel": 60,
        "discount": 0,
        "multiplier": 2,
        "address": "Московская улица,26"
      },
      {
        "id": 2,
        "lat": 52.952825,
        "lon": 36.070157,
        "angle": 0,
        "model": "Fabia",
        "mark": "Skoda",
        "fuelDistance": 187.5,
        "color": "красный",
        "fuel": 15,
        "maxFuelLevel": 60,
        "discount": 0,
        "multiplier": 1,
        "address": "улица Маяковского,67"
      },
      {
        "id": 30,
        "lat": 52.969325,
        "lon": 36.080557,
        "angle": 0,
        "model": "309",
        "mark": "Peugeot",
        "fuelDistance": 437.5,
        "color": "синий",
        "fuel": 35,
        "maxFuelLevel": 60,
        "discount": 0,
        "multiplier": 1,
        "address": "Московская улица,26"
      },
      {
        "id": 31,
        "lat": 52.969325,
        "lon": 36.080557,
        "angle": 0,
        "model": "309",
        "mark": "Peugeot",
        "fuelDistance": 437.5,
        "color": "синий",
        "fuel": 35,
        "maxFuelLevel": 60,
        "discount": 0,
        "multiplier": 1,
        "address": "Московская улица,26"
      },
      {
        "id": 32,
        "lat": 52.969325,
        "lon": 36.080557,
        "angle": 0,
        "model": "309",
        "mark": "Peugeot",
        "fuelDistance": 437.5,
        "color": "синий",
        "fuel": 35,
        "maxFuelLevel": 60,
        "discount": 0,
        "multiplier": 1,
        "address": "Московская улица,26"
      },
      {
        "id": 33,
        "lat": 52.969325,
        "lon": 36.080557,
        "angle": 0,
        "model": "309",
        "mark": "Peugeot",
        "fuelDistance": 437.5,
        "color": "синий",
        "fuel": 35,
        "maxFuelLevel": 60,
        "discount": 0,
        "multiplier": 1,
        "address": "Московская улица,26"
      },
      {
        "id": 34,
        "lat": 52.969325,
        "lon": 36.080557,
        "angle": 0,
        "model": "309",
        "mark": "Peugeot",
        "fuelDistance": 437.5,
        "color": "синий",
        "fuel": 35,
        "maxFuelLevel": 60,
        "discount": 0,
        "multiplier": 1,
        "address": "Московская улица,26"
      },
      {
        "id": 35,
        "lat": 52.969325,
        "lon": 36.080557,
        "angle": 0,
        "model": "309",
        "mark": "Peugeot",
        "fuelDistance": 437.5,
        "color": "синий",
        "fuel": 35,
        "maxFuelLevel": 60,
        "discount": 0,
        "multiplier": 1,
        "address": "Московская улица,26"
      },
      {
        "id": 36,
        "lat": 52.969325,
        "lon": 36.080557,
        "angle": 0,
        "model": "309",
        "mark": "Peugeot",
        "fuelDistance": 437.5,
        "color": "синий",
        "fuel": 35,
        "maxFuelLevel": 60,
        "discount": 0,
        "multiplier": 1,
        "address": "Московская улица,26"
      },
      {
        "id": 37,
        "lat": 52.969325,
        "lon": 36.080557,
        "angle": 0,
        "model": "309",
        "mark": "Peugeot",
        "fuelDistance": 437.5,
        "color": "синий",
        "fuel": 35,
        "maxFuelLevel": 60,
        "discount": 0,
        "multiplier": 1,
        "address": "Московская улица,26"
      },
      {
        "id": 38,
        "lat": 52.969325,
        "lon": 36.080557,
        "angle": 0,
        "model": "309",
        "mark": "Peugeot",
        "fuelDistance": 437.5,
        "color": "синий",
        "fuel": 35,
        "maxFuelLevel": 60,
        "discount": 0,
        "multiplier": 1,
        "address": "Московская улица,26"
      },
      {
        "id": 39,
        "lat": 52.969325,
        "lon": 36.080557,
        "angle": 0,
        "model": "309",
        "mark": "Peugeot",
        "fuelDistance": 437.5,
        "color": "синий",
        "fuel": 35,
        "maxFuelLevel": 60,
        "discount": 0,
        "multiplier": 1,
        "address": "Московская улица,26"
      },
      {
        "id": 40,
        "lat": 52.969325,
        "lon": 36.080557,
        "angle": 0,
        "model": "309",
        "mark": "Peugeot",
        "fuelDistance": 437.5,
        "color": "синий",
        "fuel": 35,
        "maxFuelLevel": 60,
        "discount": 0,
        "multiplier": 1,
        "address": "Московская улица,26"
      },
      {
        "id": 41,
        "lat": 52.969325,
        "lon": 36.080557,
        "angle": 0,
        "model": "309",
        "mark": "Peugeot",
        "fuelDistance": 437.5,
        "color": "синий",
        "fuel": 35,
        "maxFuelLevel": 60,
        "discount": 0,
        "multiplier": 1,
        "address": "Московская улица,26"
      },
      {
        "id": 42,
        "lat": 52.969325,
        "lon": 36.080557,
        "angle": 0,
        "model": "309",
        "mark": "Peugeot",
        "fuelDistance": 437.5,
        "color": "синий",
        "fuel": 35,
        "maxFuelLevel": 60,
        "discount": 0,
        "multiplier": 1,
        "address": "Московская улица,26"
      },
      {
        "id": 43,
        "lat": 52.969325,
        "lon": 36.080557,
        "angle": 0,
        "model": "309",
        "mark": "Peugeot",
        "fuelDistance": 437.5,
        "color": "синий",
        "fuel": 35,
        "maxFuelLevel": 60,
        "discount": 0,
        "multiplier": 1,
        "address": "Московская улица,26"
      },
      {
        "id": 44,
        "lat": 52.969325,
        "lon": 36.080557,
        "angle": 0,
        "model": "309",
        "mark": "Peugeot",
        "fuelDistance": 437.5,
        "color": "синий",
        "fuel": 35,
        "maxFuelLevel": 60,
        "discount": 0,
        "multiplier": 1,
        "address": "Московская улица,26"
      },
      {
        "id": 45,
        "lat": 52.969325,
        "lon": 36.080557,
        "angle": 0,
        "model": "309",
        "mark": "Peugeot",
        "fuelDistance": 437.5,
        "color": "синий",
        "fuel": 35,
        "maxFuelLevel": 60,
        "discount": 0,
        "multiplier": 1,
        "address": "Московская улица,26"
      },
      {
        "id": 46,
        "lat": 52.969325,
        "lon": 36.080557,
        "angle": 0,
        "model": "309",
        "mark": "Peugeot",
        "fuelDistance": 437.5,
        "color": "синий",
        "fuel": 35,
        "maxFuelLevel": 60,
        "discount": 0,
        "multiplier": 1,
        "address": "Московская улица,26"
      },
      {
        "id": 47,
        "lat": 52.969325,
        "lon": 36.080557,
        "angle": 0,
        "model": "309",
        "mark": "Peugeot",
        "fuelDistance": 437.5,
        "color": "синий",
        "fuel": 35,
        "maxFuelLevel": 60,
        "discount": 0,
        "multiplier": 1,
        "address": "Московская улица,26"
      },
      {
        "id": 48,
        "lat": 52.969325,
        "lon": 36.080557,
        "angle": 0,
        "model": "309",
        "mark": "Peugeot",
        "fuelDistance": 437.5,
        "color": "синий",
        "fuel": 35,
        "maxFuelLevel": 60,
        "discount": 0,
        "multiplier": 1,
        "address": "Московская улица,26"
      },
      {
        "id": 49,
        "lat": 52.969325,
        "lon": 36.080557,
        "angle": 0,
        "model": "309",
        "mark": "Peugeot",
        "fuelDistance": 437.5,
        "color": "синий",
        "fuel": 35,
        "maxFuelLevel": 60,
        "discount": 0,
        "multiplier": 1,
        "address": "Московская улица,26"
      },
      {
        "id": 50,
        "lat": 52.969325,
        "lon": 36.080557,
        "angle": 0,
        "model": "309",
        "mark": "Peugeot",
        "fuelDistance": 437.5,
        "color": "синий",
        "fuel": 35,
        "maxFuelLevel": 60,
        "discount": 0,
        "multiplier": 1,
        "address": "Московская улица,26"
      },
      {
        "id": 51,
        "lat": 52.969325,
        "lon": 36.080557,
        "angle": 0,
        "model": "309",
        "mark": "Peugeot",
        "fuelDistance": 437.5,
        "color": "синий",
        "fuel": 35,
        "maxFuelLevel": 60,
        "discount": 0,
        "multiplier": 1,
        "address": "Московская улица,26"
      },
      {
        "id": 52,
        "lat": 52.969325,
        "lon": 36.080557,
        "angle": 0,
        "model": "309",
        "mark": "Peugeot",
        "fuelDistance": 437.5,
        "color": "синий",
        "fuel": 35,
        "maxFuelLevel": 60,
        "discount": 0,
        "multiplier": 1,
        "address": "Московская улица,26"
      },
      {
        "id": 53,
        "lat": 52.969325,
        "lon": 36.080557,
        "angle": 0,
        "model": "309",
        "mark": "Peugeot",
        "fuelDistance": 437.5,
        "color": "синий",
        "fuel": 35,
        "maxFuelLevel": 60,
        "discount": 0,
        "multiplier": 1,
        "address": "Московская улица,26"
      },
      {
        "id": 54,
        "lat": 52.969325,
        "lon": 36.080557,
        "angle": 0,
        "model": "309",
        "mark": "Peugeot",
        "fuelDistance": 437.5,
        "color": "синий",
        "fuel": 35,
        "maxFuelLevel": 60,
        "discount": 0,
        "multiplier": 1,
        "address": "Московская улица,26"
      },
      {
        "id": 55,
        "lat": 52.969325,
        "lon": 36.080557,
        "angle": 0,
        "model": "309",
        "mark": "Peugeot",
        "fuelDistance": 437.5,
        "color": "синий",
        "fuel": 35,
        "maxFuelLevel": 60,
        "discount": 0,
        "multiplier": 1,
        "address": "Московская улица,26"
      },
      {
        "id": 339218,
        "lat": 53.8977737,
        "lon": 27.5517273,
        "angle": 0,
        "model": "x50",
        "mark": "Lifan",
        "color": "Красный",
        "fuel": 0,
        "maxFuelLevel": 40,
        "discount": 0,
        "multiplier": 1,
        "address": "улица Володарского,9"
      },
      {
        "id": 696629,
        "lat": 54.9768677,
        "lon": 30.9901943,
        "angle": 301,
        "model": "Cayman",
        "mark": "Porsche",
        "color": "",
        "fuel": 0,
        "maxFuelLevel": 60,
        "discount": 0,
        "multiplier": 1,
        "address": ""
      },
      {
        "id": 2325084,
        "lat": 54.6913605,
        "lon": 31.0182247,
        "angle": 251,
        "model": "1",
        "mark": "ЗАЗ",
        "color": "",
        "fuel": 0,
        "maxFuelLevel": 40,
        "discount": 0,
        "multiplier": 1,
        "address": "М1"
      },
      {
        "id": 2325085,
        "lat": 52.5237465,
        "lon": 39.4673462,
        "angle": 300,
        "model": "1",
        "mark": "ЗАЗ",
        "color": "",
        "fuel": 0,
        "maxFuelLevel": 40,
        "discount": 0,
        "multiplier": 1,
        "address": ""
      },
      {
        "id": 2325086,
        "lat": 52.9779205,
        "lon": 36.1019745,
        "angle": 22,
        "model": "1",
        "mark": "ЗАЗ",
        "fuelDistance": 575,
        "color": "",
        "fuel": 46,
        "maxFuelLevel": 40,
        "discount": 0,
        "multiplier": 1,
        "address": "Московская улица,102"
      },
      {
        "id": 2333199,
        "lat": 60.374691,
        "lon": 30.2637901,
        "angle": 90,
        "model": "1",
        "mark": "ЗАЗ",
        "color": "",
        "fuel": 0,
        "maxFuelLevel": 40,
        "discount": 0,
        "multiplier": 1,
        "address": ""
      },
      {
        "id": 2333227,
        "lat": 55.765667,
        "lon": 37.635231,
        "angle": 90,
        "model": "Granta (Автомат)",
        "mark": "Lada",
        "fuelDistance": 362.5,
        "color": "",
        "fuel": 29,
        "maxFuelLevel": 50,
        "discount": 0,
        "multiplier": 1,
        "address": "Сретенский бульвар,6/1 с2"
      },
      {
        "id": 2333230,
        "lat": 54.000473,
        "lon": 61.6381149,
        "angle": 137,
        "model": "1",
        "mark": "ЗАЗ",
        "color": "",
        "fuel": 0,
        "maxFuelLevel": 40,
        "discount": 0,
        "multiplier": 1,
        "address": ""
      },
      {
        "id": 2333251,
        "lat": 55.752023,
        "lon": 37.617499,
        "angle": null,
        "model": "Solaris",
        "mark": "Hyundai",
        "color": "Желтый",
        "fuel": 0,
        "maxFuelLevel": 50,
        "discount": 0,
        "multiplier": null,
        "address": "Боровицкая улица"
      },
      {
        "id": 2333252,
        "lat": 55.7416407,
        "lon": 37.5990335,
        "angle": 0,
        "model": "Solaris",
        "mark": "Hyundai",
        "color": "Черный",
        "fuel": 0,
        "maxFuelLevel": 50,
        "discount": 0,
        "multiplier": null,
        "address": "улица Остоженка,16"
      },
      {
        "id": 2333253,
        "lat": 55.7537043,
        "lon": 37.6306607,
        "angle": 0,
        "model": "Rio",
        "mark": "Kia",
        "color": "Белый",
        "fuel": 0,
        "maxFuelLevel": 60,
        "discount": 0,
        "multiplier": null,
        "address": "Ипатьевский переулок,9 с1"
      },
      {
        "id": 2333254,
        "lat": 55.7456493,
        "lon": 37.6358455,
        "angle": 0,
        "model": "Granta (Автомат)",
        "mark": "Lada",
        "color": "Красный",
        "fuel": 0,
        "maxFuelLevel": 50,
        "discount": 0,
        "multiplier": null,
        "address": "Садовническая улица"
      },
      {
        "id": 2354869,
        "lat": 55.88973236083984,
        "lon": 37.86798858642578,
        "angle": 225,
        "model": "Solaris",
        "mark": "Hyundai",
        "fuelDistance": 625,
        "color": "",
        "fuel": 50,
        "maxFuelLevel": 50,
        "discount": 0,
        "multiplier": 1,
        "address": "Железнодорожная улица"
      },
      {
        "id": 2354870,
        "lat": 55.28322219848633,
        "lon": 37.62513732910156,
        "angle": 90,
        "model": "Polo",
        "mark": "Volkswagen",
        "fuelDistance": 625,
        "color": "",
        "fuel": 50,
        "maxFuelLevel": 60,
        "discount": 0,
        "multiplier": 1,
        "address": ""
      },
      {
        "id": 2354871,
        "lat": 52.9777336,
        "lon": 36.1022682,
        "angle": 84,
        "model": "X5",
        "mark": "BMW",
        "fuelDistance": 777.7775,
        "color": "",
        "fuel": 62.2222,
        "maxFuelLevel": 60,
        "discount": 0,
        "multiplier": 1,
        "address": "Московская улица,104"
      },
      {
        "id": 2354874,
        "lat": 54.6706085,
        "lon": 20.5107155,
        "angle": 214,
        "model": "Solaris",
        "mark": "Hyundai",
        "color": "",
        "fuel": null,
        "maxFuelLevel": 50,
        "discount": 0,
        "multiplier": 1,
        "address": "бульвар Любови Шевцовой,90"
      },
      {
        "id": 2354876,
        "lat": 55.1649933,
        "lon": 37.4675255,
        "angle": 18,
        "model": "Rio",
        "mark": "Kia",
        "fuelDistance": 49.41175,
        "color": "",
        "fuel": 3.95294,
        "maxFuelLevel": 60,
        "discount": 0,
        "multiplier": null,
        "address": "Московская улица,19"
      },
      {
        "id": 2354877,
        "lat": 55.51042175292969,
        "lon": 37.96019744873047,
        "angle": 45,
        "model": "EL",
        "mark": "Acura",
        "fuelDistance": 625,
        "color": "",
        "fuel": 50,
        "maxFuelLevel": 60,
        "discount": 0,
        "multiplier": 1,
        "address": ""
      },
      {
        "id": 2354878,
        "lat": 52.9736443,
        "lon": 36.0786438,
        "angle": 330,
        "model": "1",
        "mark": "ЗАЗ",
        "color": "",
        "fuel": 0,
        "maxFuelLevel": 40,
        "discount": 0,
        "multiplier": 1,
        "address": "Московская улица,55"
      },
      {
        "id": 2354880,
        "lat": 56.8074913,
        "lon": 60.6085701,
        "angle": 251,
        "model": "Matiz",
        "mark": "Daewoo",
        "fuelDistance": 2325,
        "color": "",
        "fuel": 186,
        "maxFuelLevel": 60,
        "discount": 0,
        "multiplier": null,
        "address": "улица 8 Марта"
      }
    ]
  }
}
